stop_id,stop_code,stop_name,stop_desc,stop_lat,stop_lon,location_type
82e75cc2-6046-4ce8-a330-6bb0c63fea88,0604,"Vet School","",30.6143425771202,-96.3513546497437,0
7e4f2883-e36d-4f36-adc7-7c838091749a,0608,"GSC","",30.6220713628573,-96.3581916009302,0
9ec6ef61-5652-4974-889a-b28164825591,0301,"MSC","",30.6139563389991,-96.3416571224724,0
3d2060dc-0881-4bbb-b156-8c11449b0957,1226,"Fish Pond","",30.6163689861517,-96.343101492113,0
801d67cc-3d0a-4bb8-a8cb-a8c4942d02f4,0113,"Ross and Ireland","",30.6177248428896,-96.3411823714484,0
732720d7-cad0-421e-a1c1-4d2c93a2534f,0114,"Ross and Spence","",30.6189492713779,-96.339402725661,0
be42c8a3-2b24-4d66-b6d2-f9d30e1a073e,0115,"Ross and Bizzell","",30.6198344004056,-96.3380616210736,0
052186b4-11d5-4547-8886-5b947fbc279f,0419,"Wisenbaker","",30.6212224436535,-96.3383861683837,0
41384e20-dbff-4444-86cc-1d73e16966cc,0412,"Hensel @ Ball","",30.626785345482,-96.3431363608322,0
31b5883e-b397-4f6c-943f-3e9eaa04ed8b,0413,"Hensel @ W-X Row","",30.6287634747484,-96.3419548476908,0
85cffc5d-b9d2-4034-88b3-faa057d90f57,0401,"Community Center","",30.6274854020766,-96.3407478535621,0
2dc9b093-42ef-414d-9af0-cdfbf2b080f9,0107,"WERC","",30.6208670509378,-96.3383915328021,0
1f197dfd-4bea-47fe-a414-738778783123,0416,"Ross and Spence","",30.6190565597449,-96.339318236072,0
bc6daeec-b7b1-479e-baaf-035bc2ba1675,0417,"Ross and Ireland","",30.6178240846291,-96.3411166573236,0
6da6f3b6-2b68-42e6-a9ba-48540bb192b2,0105,"Fish Pond","",30.6164172659169,-96.3431752528653,0
ca1de893-41a9-42df-8e28-e885a4750afe,3401,"Trigon","",30.6146107980377,-96.3390392863178,0
d85843b4-ccd4-4370-8312-9773727d9c49,3402,"Welsh @ First Baptist","",30.5874601356661,-96.314977187811,0
e3090b92-f40f-4925-b6b9-8119a73b0ff9,3403,"Westridge @ Pintail","",30.58479167,-96.31726944,0
2a977f45-0164-49a3-8af3-095a5f8bf739,3404,"Westridge @ Antelope","",30.58277778,-96.31856667,0
a112e494-876e-4d67-8f5f-587a2c5371e8,3405,"Navarro @ Antelope","",30.5815793920505,-96.3163652310589,0
f67457fb-412f-4ceb-ae19-2148c2aac2d3,3406,"Navarro @ Pintail","",30.583667491893,-96.3151086160605,0
271fe707-36f1-4b82-b6a5-270fa1b257f3,3407,"Welsh @ San Benito","",30.5836929728802,-96.3120468742875,0
496aff3a-4e28-4c67-b214-0457612becdc,3408,"Deacon @ Aztec","",30.5805735636099,-96.3113132900782,0
92fd3a99-b469-472f-a60e-da18b0406fd1,3409,"Fraternity Row #1","",30.5773468659727,-96.3139968403576,0
626e8228-2279-4e16-b8df-6073e1b77ef8,3410,"Fraternity Row #2","",30.5761184141706,-96.3144715913815,0
6b2a92ee-8e33-43cb-a6db-2172bcc0c52c,2601,"Trigon","",30.614362693689,-96.3397393429124,0
0829afa2-7408-492a-8e43-1e5027d02b2b,2602,"Scandia","",30.6112325555821,-96.3235991492032,0
f0133ed1-11fa-4f22-8aea-5cac3a3faaaa,2703,"Lexington","",30.6092289453285,-96.3208539081129,0
86f3d35d-0dd6-4d1c-bb4d-b919656f5841,2604,"Lemon Tree","",30.6071167056034,-96.317671466927,0
7905fea7-2c64-45ab-8ebf-617c90c2ca78,2605,"Brentwood","",30.606198048961,-96.3134402819538,0
823a496f-86a8-4fa5-b1de-ff0089f21f43,2606,"Kroger","",30.605652219394,-96.3107929414983,0
6b71a567-dd09-4c03-96c9-823ab7603c27,2607,"Southwest Parkway @ Cornell","",30.6095038717689,-96.3065711442573,0
fa117c6c-3b75-46d7-b369-cc9a8ae7e582,2608,"Southwest Parkway @ Dartmouth","",30.61214167,-96.30358611,0
d43174ab-ccf9-4a08-849c-b537e3aae9f3,2609,"Hickory Park","",30.61343889,-96.30210556,0
01e150a7-8e8e-43ce-8a7b-d137accd511c,2610,"Eastmark/Windsor Point","",30.6155053147975,-96.2997476041166,0
6221a100-77e4-45bf-b424-772a1869a3c9,2611,"Trails @ Wolf Pen Creek","",30.61759722,-96.30206389,0
3ec2a907-8a7c-4d9d-9989-a5e772d26413,2612,"Carnation","",30.61573611,-96.30389167,0
7e4fbf06-cefb-464e-a9f7-2193ca5d1e37,2613,"Brentwood","",30.6127158172557,-96.3054915550644,0
51faef00-2da6-4c69-a654-04ea3dc6031b,2614,"Brentwood @ Cornell","",30.61173056,-96.30793611,0
34e77f78-1eb4-4807-a180-17c06785cb81,2615,"Redstone","",30.6080232923045,-96.3128300793666,0
d53bd261-851e-4c24-ae53-a1bc7fbe7783,2616,"Denver","",30.6064314011593,-96.3157067487065,0
c943b1a8-fbfa-44f1-8b29-8985292e88bb,2617,"Lemon Tree","",30.6071314577539,-96.317625869371,0
4a053c87-5ec3-4de9-9451-11117e0c3683,2618,"Lexington","",30.6090143685946,-96.3205266785936,0
5e2362fd-1323-4204-8ec4-5724a2ba3aeb,2714,"Scandia","",30.6116053826574,-96.3240658535996,0
af7bfc3c-b498-4cc7-a3c6-316de5418265,2620,"Taos","",30.612520015986,-96.3251910403485,0
210d352e-1807-46c3-a2c6-edf06cdb1141,0612,"Vet School","",30.614362693689,-96.3514257282868,0
18936b67-8d15-407b-9c20-eac354221525,2701,"Trigon","",30.614561177168,-96.3394603931582,0
eb9e369c-fbc0-43b7-80d4-ece9b9ee80c3,2704,"Enclave","",30.6118387348556,-96.3184291910189,0
6f0a5520-04dd-40a1-9832-b1da52076121,2705,"Arbors @ Wolf Pen Creek","",30.6161611149407,-96.312077719693,0
befe16c0-0c94-4fcf-bb7f-72f1699cd472,2706,"River Oaks Townhomes","",30.6177892159098,-96.3101076370542,0
d431e639-6199-46db-9143-fd3046f52839,2707,"Lofts @ Wolf Pen Creek","",30.6183712553007,-96.3080342893621,0
11052373-4436-4414-a8bd-655e299fa9d5,2708,"Mall Park - n - Ride","",30.6207114828057,-96.3045219364477,0
85b5d3d0-3983-44cc-9f93-e892320f05e6,2709,"Lofts @ Wolf Pen Creek","",30.6184262405888,-96.3081737642392,0
7f4eec37-a6cc-4a21-b758-ed5925d74f2d,2710,"River Oaks Townhomes","",30.6178442011979,-96.3102028554799,0
9b20a500-4d06-4862-883e-3bfb930e9f2b,2711,"Arbors @ Wolf Pen Creek","",30.6156783172892,-96.3126879222803,0
7819e7ba-3f78-4d4c-a345-33a97288fb42,2712,"HEB","",30.6119071311895,-96.3185109983987,0
334e48a1-5665-45b9-a0a5-13ca84be0944,2713,"Village","",30.6108181542646,-96.320265163199,0
65096ae9-f804-474c-ad01-863651d9fc4b,2206,"Plantation Oaks","",30.6275309996325,-96.3064853135637,0
1db12ce8-5919-4fbb-98c2-01709082fa19,2207,"Briarwood","",30.6264822558452,-96.3097951596853,0
3754d03d-aa1d-494e-b52d-0aa2e9ef5796,2208,"Cripple Creek","",30.6240722909017,-96.3128247149482,0
23226205-761d-4e91-a0ee-f82ae875cd8d,2209,"Polo Club","",30.6215590609049,-96.3156504223138,0
0c46f3c9-ecbd-4e95-93a0-c54dfe7e4381,2210,"The Cambridge","",30.6203064692203,-96.3170947919544,0
90f4a468-deb0-41a0-b125-9bfd660cf967,2201,"Trigon","",30.613533891054,-96.3392927550848,0
97f8ad42-a4d6-4ccc-95ca-4f10ce3e0500,3601,"Trigon","",30.6138182052266,-96.3395502471656,0
e66759b8-0ada-443f-b3be-b35b5c588034,3602,"Treehouse","",30.6015189350557,-96.3389293157416,0
efaff9c1-c0b5-4894-bcee-a71799204319,3615,"Meadows Point 1","",30.5959399399722,-96.3365864060275,0
7f9f7723-b6fb-4c76-a86e-84e849a8c7c4,3605,"Meadows Point","",30.594026183726,-96.336802323866,0
a3bf03a2-1fba-4986-b402-37804a8f3612,3505,"Gridiron","",30.5927762742505,-96.3382306002516,0
05b1b727-0a68-4874-aa0d-93fe086dcf4d,3606,"The Zone","",30.5897668355564,-96.3380562566552,0
47c6b5cf-c025-4382-9487-4a8b0c4d4cc2,3618,"Holleman South","",30.5841207852436,-96.3369297288018,0
56fbcd27-99f7-42ae-bc39-6a8b22898625,3506,"Walden Pond","",30.5897668355564,-96.3379851781121,0
2a92894c-1d66-49f6-bad3-04f29b040f7f,3507,"Gridiron","",30.5927132423349,-96.3381648861268,0
c352570b-b903-453d-969d-3f45b2dc3974,3603,"Gateway","",30.5939631518104,-96.3367527029963,0
156e1e4c-a894-4817-8755-2a47d14e4cf5,3509,"U-Club","",30.5960941669997,-96.336487164288,0
3a8d7deb-82fa-4774-9c0b-cb51136559eb,3613,"Callaway Villas","",30.6016409755731,-96.3389319979508,0
dfe39950-7158-4d9b-8320-facda9bb8fde,2202,"Campus View","",30.62002222,-96.31725833,0
cae66ab5-c63f-402b-a689-d34a782b13b4,2203,"Polo Club","",30.6214946878847,-96.3155927548166,0
4f77ab4f-7557-4085-96fb-704e91f57457,2204,"Cripple Creek","",30.6239489092796,-96.3128113039024,0
d07c81ca-0731-4c03-bf8d-f79b434a3975,2205,"Munson","",30.6236002220869,-96.3108546323094,0
35f91c0a-492b-4dcb-8ace-a780b7ab4fe7,3501,"Trigon","",30.6139523156853,-96.3396763109968,0
173efd68-9823-446a-abbf-d416bd87bc55,3513,"Woodsman","",30.5939524229737,-96.3393142127582,0
36185ccf-fb0b-46b0-9e3b-c7df4a6e885d,3514,"Jones Butler South","",30.5908933634098,-96.3354706070108,0
d5773f9e-2629-49d7-95ab-0849b88c2bf3,3515,"The Heights","",30.5898888760739,-96.3465414253796,0
5392facc-8360-4759-886b-ba046e5e2101,3516,"Fox Run","",30.5919662470797,-96.3442052211884,0
05ad187d-f876-4506-bcc8-c8b244b8b7b5,3517,"The District","",30.5939229186728,-96.3420420194889,0
a33d8257-5e2a-41d1-b164-c36fbfc5f182,3518,"West Luther @ Jones","",30.59536389,-96.34043611,0
eefdeeaf-08a0-4f5e-975e-5112d0abec51,0104,"Wehner N","",30.6121310956556,-96.3495307475049,0
eddf7530-6a6e-4fc6-95e9-619e98f6073e,2621,"1809 Brentwood Dr","26 extra",30.6085422997798,-96.3122413344527,0
2440d9e6-e17c-456a-84d9-189d8afe46e1,0111,"Rudder","",30.6133219965292,-96.3388314151067,0
c12d24e6-55fc-4b8d-aa17-972eb7c4c2bc,3301,"Trigon","",30.614638961234,-96.33908086056,0
4bc354c6-19fe-4067-b1c2-1b6aedf67ebe,3302,"Doux Chene/Valley View","",30.5980776606844,-96.3068769161032,0
71c4a036-67c4-4750-be4d-d2bd2d834901,3303,"Brookwood","",30.5996735751434,-96.3053547623965,0
3e0cb823-051d-4b80-99ad-0ff647dba2ca,3304,"Airline","",30.5959909019465,-96.3015433431592,0
8deed0d8-2c99-447a-b5ac-cc7026120ae0,3305,"Cambridge Court","",30.5951580759977,-96.3001217722965,0
2c42260a-2324-452a-9ebb-162b726e36d9,3306,"Peppertree","",30.5936667676965,-96.2957886633747,0
36196819-7402-4766-8edd-9a691226bb69,3307,"Treehouse","",30.5910207683456,-96.2929133351394,0
04b84d02-5d16-445a-b508-63bc27b8e900,3308,"Bluestem","",30.5860680691044,-96.2922414417411,0
8e9c293a-2cd7-4d4d-ac6e-9edbc85b4b58,3309,"Adrienne","",30.5844895890051,-96.2952039417746,0
9393f6a4-7067-4c5b-96fa-bae9810b92da,3310,"Ponderosa @ Brothers Pond Park","",30.5829996218085,-96.299600082612,0
bfc8d320-73e3-4442-8592-1d0ee07f5dc5,3311,"Van Horn","",30.5868190876734,-96.3053198936772,0
1c044a4c-3c9f-49f4-bbb4-155f06c3e979,3312,"Rio Grande @ Balcones","",30.59050278,-96.30896667,0
441046fa-7d3d-4e06-a55a-ebf958d4db74,0408,"Rural Public Health","",30.6092919772441,-96.3535366269074,0
f78638e4-36ec-4402-ba2c-d6205ace49ac,3101,"Trigon","",30.614447183278,-96.3388917648132,0
4c214ca2-c25c-44c4-be80-8e36ddf5a530,3102,"Oney Hervey","",30.5978496729046,-96.3309953410026,0
090557ce-c5c9-4ffb-8b8a-e6ad27bd338e,3103,"Willow Rock","",30.5992940425452,-96.3264691130202,0
27e71733-ae4c-4ba5-9b55-6893b6d5dc2c,3104,"Renaissance Park","",30.5973695574623,-96.3249040439668,0
f0ca04f8-596e-484a-8e26-957a7b8694f2,3105,"Yellow House","",30.59564444,-96.322725,0
69bab929-66a3-44a9-8fc3-28747028cbf9,3106,"Colony","",30.5975,-96.32116389,0
5940edc0-f1eb-46de-8ac4-39da86614955,3107,"Renaissance Park","",30.59524444,-96.32368333,0
692ac7dc-8920-4593-ac17-139cd8da87bd,3109,"Parkway Circle","",30.5935165639827,-96.3268003658533,0
ff5847b9-5ff6-4e7d-886f-d43b785ae16c,3110,"The Woodlands","",30.59188889,-96.32951111,0
b854e380-7e40-4bad-b505-786363ec88b5,2715,"265 Holleman Dr E","27 extra",30.6155388424122,-96.3140223213448,0
67d6da02-7372-40ae-af82-efff85de649d,0406,"Fish Pond","",30.6164373824857,-96.3436097707516,0
a2511672-29ea-4f5f-88ae-742bfe94c066,0415,"Health Science Center","",30.5977772532569,-96.39537506672,0
4f4de549-aa1a-42e3-91cc-9d92df5df001,2211,"810 Dominik Dr","22 Extra",30.6242868676356,-96.3154519388349,0
e9da9188-ce82-4c21-9dc0-4b9f2ee156d5,3621,"Jones Butler Rd","",30.5944311973114,-96.3398573601161,0
